{
    "meta": {
        "status": "200",
        "message": "OK",
        "total": "66",
        "took": "3093"
    },
    "data": [
        {
            "url": "https://www.uva.nl/_service/locaties/amc/acta.html",
            "id": "acta",
            "name": "ACTA",
            "description": "Academisch Centrum Tandheelkunde Amsterdam (ACTA)",
            "content": "<html><body/></html>",
            "address": "Gustav Mahlerlaan 3004",
            "postalCode": "1081 LA",
            "city": "Amsterdam",
            "phone": "+31 (0)20 598 0888",
            "cluster": "AMC",
            "lat": "52.335995",
            "lon": "4.861189",
            "lastModified": "2013-08-01T09:56:30",
            "thumbnail": "https://static.uva.nl/binaries/thumbnail/content/gallery/locaties/a/81746-gebouwen-tandheelkunde-nieuwbouw-acta-artistimpression-fotobenthemcrouwelarchitekten-w1280_cr.jpg"
        },
        {
            "url": "https://www.uva.nl/_service/locaties/amc/academisch-medisch-centrum.html",
            "id": "academisch-medisch-centrum",
            "name": "Academisch Medisch Centrum",
            "description": "Academisch Medisch Centrum (AMC)",
            "content": "<h4>Voor openingstijden en bereikbaarheid ga naar <a href=\"http://www.amc.nl\">www.amc.nl</a>.</h4>",
            "address": "Meibergdreef 9",
            "postalCode": "1105 AZ",
            "city": "Amsterdam",
            "phone": "+31 (0)20 566 9111",
            "cluster": "AMC",
            "lat": "52.2946288",
            "lon": "4.9579728",
            "lastModified": "2016-11-23T10:46:04",
            "thumbnail": "https://static.uva.nl/binaries/thumbnail/content/gallery/locaties/a/128638-gebouwen-amc-fotopeterlowie-edit-w1280_cr.jpg"
        },
        {
            "url": "https://www.uva.nl/_service/locaties/binnenstad/agnietenkapel.html",
            "id": "agnietenkapel",
            "name": "Agnietenkapel",
            "description": "Agnietenkapel",
            "content": "<html><body/></html>",
            "address": "Oudezijds Voorburgwal 229 - 231",
            "postalCode": "1012 EZ",
            "city": "Amsterdam",
            "phone": "+31 (0)20 525 2362",
            "cluster": "binnenstad",
            "lat": "52.3699391",
            "lon": "4.8949754",
            "lastModified": "2015-07-13T15:20:32",
            "thumbnail": "https://static.uva.nl/binaries/thumbnail/content/gallery/locaties/a/130838-gebouwen-agnietenkapelpurperhoedenveem-fotogillissen-img_2847_1-w1280_cr.jpg"
        },
        {
            "url": "https://www.uva.nl/_service/locaties/binnenstad/allard-pierson-museum.html",
            "id": "allard-pierson-museum",
            "name": "Allard Pierson Museum",
            "description": "Allard Pierson Museum",
            "content": "<h4>Openingstijden en meer informatie:</h4>\n\n<p><a href=\"http://www.allardpiersonmuseum.nl\" target=\"_blank\">www.allardpiersonmuseum.nl</a></p>\n\n<p>&nbsp;</p>",
            "address": "Oude Turfmarkt 127",
            "postalCode": "1012 GC",
            "city": "Amsterdam",
            "phone": "+31 (0)20 525 2556",
            "cluster": "binnenstad",
            "lat": "52.368774",
            "lon": "4.893011",
            "lastModified": "2016-02-23T14:17:06",
            "thumbnail": "https://static.uva.nl/binaries/thumbnail/content/gallery/locaties/a/gebouwen-allardpiersonmuseum-fotogooglemaps.jpg"
        },
        {
            "url": "https://www.uva.nl/_service/locaties/sciencepark/science-park-113.html",
            "id": "science-park-113",
            "name": "Science Park 113",
            "description": "Amsterdam University College (AUC)",
            "content": "<html><body/></html>",
            "address": "Science Park 113",
            "postalCode": "1098 XG",
            "city": "Amsterdam",
            "phone": "",
            "cluster": "sciencepark",
            "lat": "52.3550677",
            "lon": "4.9510528",
            "lastModified": "2015-08-24T12:32:20",
            "thumbnail": "https://static.uva.nl/binaries/thumbnail/content/gallery/locaties/a/auc-uva-locaties-fotogillissen-img_4485.jpg"
        },
        {
            "url": "https://www.uva.nl/_service/locaties/binnenstad/amsterdamse-academische-club-aac.html",
            "id": "amsterdamse-academische-club-aac",
            "name": "Amsterdamse Academische Club (AAC)",
            "description": "Amsterdamse Academische Club (AAC)",
            "content": "<h4>Openingstijden:</h4>\n\n<p>Maandag t/m vrijdag: 12.00 - 22.00 uur</p>",
            "address": "Oudezijds Achterburgwal 235",
            "postalCode": "1012 DL",
            "city": "Amsterdam",
            "phone": "+31 (0)20 525 1570",
            "cluster": "binnenstad",
            "lat": "52.369311",
            "lon": "4.8950218",
            "lastModified": "2016-10-25T11:02:44",
            "thumbnail": "https://static.uva.nl/binaries/thumbnail/content/gallery/locaties/a/gebouwen-academischeclub-fotogooglemaps.jpg"
        },
        {
            "url": "https://www.uva.nl/_service/locaties/roeterseiland/arbodienst-uva-hva.html",
            "id": "arbodienst-uva-hva",
            "name": "Arbodienst UvA-HvA",
            "description": "Arbodienst UvA-HvA",
            "content": "<h4>Openingstijden:</h4>\n\n<p>Maandag t/m vrijdag: 8.30 - 17.00 uur</p>",
            "address": "Nieuwe Achtergracht 129-B",
            "postalCode": "1018 WS",
            "city": "Amsterdam",
            "phone": "+31 (0)20 525 6210",
            "cluster": "roeterseiland",
            "lat": "52.363634",
            "lon": "4.91297",
            "lastModified": "2017-01-18T10:23:41"
        },
        {
            "url": "https://www.uva.nl/_service/locaties/roeterseiland/artis-bibliotheek.html",
            "id": "artis-bibliotheek",
            "name": "Artis Bibliotheek",
            "description": "Artis Bibliotheek",
            "content": "<h4>Openingstijden:</h4>\n\n<p>&nbsp;</p>\n\n<table>\n <tbody>\n  <tr>\n   <td>\n   <p>maandag en dinsdag</p>\n   </td>\n   <td>\n   <p>Gesloten</p>\n   </td>\n  </tr>\n  <tr>\n   <td>\n   <p>woensdag, donderdag en vrijdag</p>\n   </td>\n   <td>12.00 - 17.00 uur</td>\n  </tr>\n  <tr>\n   <td>\n   <p>zaterdag en zondag</p>\n   </td>\n   <td>Gesloten</td>\n  </tr>\n </tbody>\n</table>\n\n<p>&nbsp;</p>",
            "address": "Plantage Middenlaan 45-45 A",
            "postalCode": "1018 DC",
            "city": "Amsterdam",
            "phone": "+31 (0)20 525 6611",
            "cluster": "roeterseiland",
            "lat": "52.365322",
            "lon": "4.9151575",
            "lastModified": "2016-10-25T10:20:19",
            "thumbnail": "https://static.uva.nl/binaries/thumbnail/content/gallery/locaties/a/artisbibliotheek-lowres.jpg"
        },
        {
            "url": "https://www.uva.nl/_service/locaties/externe-locaties/ateliergebouw.html",
            "id": "ateliergebouw",
            "name": "Ateliergebouw",
            "description": "Ateliergebouw",
            "content": "<html><body></body></html>",
            "address": "Hobbemastraat 22",
            "postalCode": "1071 ZC",
            "city": "Amsterdam",
            "phone": "",
            "cluster": "externelocatie",
            "lat": "52.358698",
            "lon": "4.88549",
            "lastModified": "2015-10-30T09:23:35",
            "thumbnail": "https://static.uva.nl/binaries/thumbnail/content/gallery/locaties/a/gebouwen-atelierrijksmuseum-earth.jpg"
        },
        {
            "url": "https://www.uva.nl/_service/locaties/binnenstad/atrium.html",
            "id": "atrium",
            "name": "Atrium",
            "description": "Atrium",
            "content": "<p>Openingstijden Atrium:&nbsp;<br />\nMaandag t/m donderdag: 11.00 - 19.30 uur<br />\nVrijdag: 11.00 - 19.00 uur</p>",
            "address": "Oudezijds Achterburgwal 237",
            "postalCode": "1012 DL",
            "city": "Amsterdam",
            "phone": "+31 (0)20 525 2147",
            "cluster": "binnenstad",
            "lat": "52.3691746",
            "lon": "4.8951102",
            "lastModified": "2016-10-25T12:10:13",
            "thumbnail": "https://static.uva.nl/binaries/thumbnail/content/gallery/locaties/b/binnengasthuis-uva-locaties-fotogillissen-img_5146.jpg"
        },
        {
            "url": "https://www.uva.nl/_service/locaties/binnenstad/aula-lutherse-kerk.html",
            "id": "aula-lutherse-kerk",
            "name": "Aula - Lutherse kerk",
            "description": "Aula - Oude Lutherse kerk",
            "content": "<html><body/></html>",
            "address": "Singel 411",
            "postalCode": "1012 XM",
            "city": "Amsterdam",
            "phone": "",
            "cluster": "binnenstad",
            "lat": "52.3683672",
            "lon": "4.8893968",
            "lastModified": "2015-07-13T15:14:58",
            "thumbnail": "https://static.uva.nl/binaries/thumbnail/content/gallery/locaties/a/132776-gebouwen-aula-singel-fotogillissen-img_0394-w1280_cr.jpg"
        },
        {
            "url": "https://www.uva.nl/_service/locaties/binnenstad/bg-1.html",
            "id": "bg-1",
            "name": "BG 1",
            "description": "BG 1",
            "content": "<h4>Openingstijden:</h4>\n\n<p>Maandag t/m donderdag: 8.00 - 20.00 uur</p>\n\n<p>Vrijdag: 8.00 - 18.00 uur</p>",
            "address": "Turfdraagsterpad 9",
            "postalCode": "1012 XT",
            "city": "Amsterdam",
            "phone": "+31 (0)20 525 4856",
            "cluster": "binnenstad",
            "lat": "52.3689852",
            "lon": "4.8931781",
            "lastModified": "2016-10-25T12:16:58",
            "thumbnail": "https://static.uva.nl/binaries/thumbnail/content/gallery/locaties/b/bg-1-turfdraagsterpad-9_0200-el.jpg"
        },
        {
            "url": "https://www.uva.nl/_service/locaties/binnenstad/bg-13a.html",
            "id": "bg-13a",
            "name": "BG 13a",
            "description": "BG 13a",
            "content": "<h4>Openingstijden:</h4>\n\n<p>Maandag t/m vrijdag: 8.00 - 18.00 uur</p>",
            "address": "Vendelstraat 8",
            "postalCode": "1012 CP",
            "city": "Amsterdam",
            "phone": "+31 (0)20 525 4500",
            "cluster": "binnenstad",
            "lat": "52.369075",
            "lon": "4.895632",
            "lastModified": "2016-10-25T12:21:00"
        },
        {
            "url": "https://www.uva.nl/_service/locaties/binnenstad/bg-14.html",
            "id": "bg-14",
            "name": "BG 14",
            "description": "BG 14",
            "content": "<html><body/></html>",
            "address": "Vendelstraat 2",
            "postalCode": "1012 XX",
            "city": "Amsterdam",
            "phone": "",
            "cluster": "binnenstad",
            "lat": "52.3686061",
            "lon": "4.8949443",
            "lastModified": "2015-07-14T13:43:00",
            "thumbnail": "https://static.uva.nl/binaries/thumbnail/content/gallery/locaties/v/locaties-vendelstraat2-fotodirkgillissen-img_2085-hippo.jpg"
        },
        {
            "url": "https://www.uva.nl/_service/locaties/binnenstad/bg-2.html",
            "id": "bg-2",
            "name": "BG 2",
            "description": "BG 2",
            "content": "<html><body/></html>",
            "address": "Turfdraagsterpad 15-17",
            "postalCode": "1012 XT",
            "city": "Amsterdam",
            "phone": "",
            "cluster": "binnenstad",
            "lat": "52.3690063",
            "lon": "4.8939414",
            "lastModified": "2015-09-25T16:06:03",
            "thumbnail": "https://static.uva.nl/binaries/thumbnail/content/gallery/locaties/t/amsterdam-gebouwen-stad-huisvesting-fotodirkgillissen-img_2052-hippo.jpg"
        },
        {
            "url": "https://www.uva.nl/_service/locaties/binnenstad/bg-3.html",
            "id": "bg-3",
            "name": "BG 3",
            "description": "BG 3",
            "content": "<h4>Openingstijden:</h4>\n\n<p>Maandag t/m vrijdag: 7.30 - 18.00 uur</p>",
            "address": "Binnengasthuisstraat 9",
            "postalCode": "1012 ZA",
            "city": "Amsterdam",
            "phone": "+31 (0)20 525 8080",
            "cluster": "binnenstad",
            "lat": "52.3690102",
            "lon": "4.8948664",
            "lastModified": "2016-10-25T12:18:19",
            "thumbnail": "https://static.uva.nl/binaries/thumbnail/content/gallery/locaties/s/78448-gebouwen-binnengasthuisterrein-foto-gillissen-img_9141-w1280_cr-2.jpg"
        },
        {
            "url": "https://www.uva.nl/_service/locaties/binnenstad/bg5.html",
            "id": "bg5",
            "name": "BG 5",
            "description": "BG 5",
            "content": "<h4>Openingstijden:</h4>\n\n<p>Maandag t/m vrijdag: 8.00 - 18.00 uur</p>",
            "address": "Oudezijds Achterburgwal 233-237",
            "postalCode": "1012 DL",
            "city": "Amsterdam",
            "phone": "+31 (0)20 525 2147",
            "cluster": "binnenstad",
            "lat": "52.369176",
            "lon": "4.895229",
            "lastModified": "2016-10-25T12:19:15"
        },
        {
            "url": "https://www.uva.nl/_service/locaties/binnenstad/bijzondere-collecties.html",
            "id": "bijzondere-collecties",
            "name": "Bijzondere Collecties",
            "description": "Bijzondere Collecties",
            "content": "<h4>Kijk voor openingstijden en meer informatie:</h4>\n\n<p><a href=\"http://www.bijzonderecollecties.uva.nl\" target=\"_blank\">www.bijzonderecollecties.uva.nl</a></p>\n\n<p>&nbsp;</p>\n\n<p>&nbsp;</p>",
            "address": "Oude Turfmarkt 129",
            "postalCode": "1012 GC",
            "city": "Amsterdam",
            "phone": "+31 (0)20 525 7300",
            "cluster": "binnenstad",
            "lat": "52.3681903",
            "lon": "4.8937045",
            "lastModified": "2016-02-23T14:19:46",
            "thumbnail": "https://static.uva.nl/binaries/thumbnail/content/gallery/locaties/b/2964-gebouwen-bijzondere-collecties-voorzieningen-bibliotheek-fotograaf-dirk-gillissen-gebruik-vrij-img_1510-w1280_cr.jpg"
        },
        {
            "url": "https://www.uva.nl/_service/locaties/binnenstad/bushuis.html",
            "id": "bushuis",
            "name": "Bushuis",
            "description": "Bushuis/Oost-Indisch Huis",
            "content": "<h4>Openingstijden gebouw:</h4>\n\n<p>Maandag t/m donderdag: 08.00 - 20.00 uur<br />\nVrijdag: 08.00 - 19.30 uur</p>\n\n<p>Op deze locatie is geen studiecentrum meer aanwezig.</p>",
            "address": "Kloveniersburgwal 48",
            "postalCode": "1012 CX",
            "city": "Amsterdam",
            "phone": "+31 (0)20 525 2258",
            "cluster": "binnenstad",
            "lat": "52.3708032",
            "lon": "4.8981063",
            "lastModified": "2017-07-06T12:19:33",
            "thumbnail": "https://static.uva.nl/binaries/thumbnail/content/gallery/locaties/b/3789-gebouwen-bushuis-fotograaf-dirk-gillissen-gebruik-vrij-img_0656-w1280_cr.jpg"
        },
        {
            "url": "https://www.uva.nl/_service/locaties/externe-locaties/centrale-oba.html",
            "id": "centrale-oba",
            "name": "Centrale OBA",
            "description": "Centrale Openbare Bibliotheek Amsterdam (OBA)",
            "content": "<html><body></body></html>",
            "address": "Oosterdokskade 143",
            "postalCode": "1011DL",
            "city": "Amsterdam",
            "phone": "",
            "cluster": "externelocatie",
            "lat": "52.370216",
            "lon": "4.895168",
            "lastModified": "2016-09-21T13:52:16"
        },
        {
            "url": "https://www.uva.nl/_service/locaties/roeterseiland/gijsbert-van-tienhovengebouw.html",
            "id": "gijsbert-van-tienhovengebouw",
            "name": "Gijsbert van Tienhovengebouw",
            "description": "Gijsbert van Tienhovengebouw",
            "content": "<html><body/></html>",
            "address": "Roetersstraat 25-35",
            "postalCode": "1018 WB",
            "city": "Amsterdam",
            "phone": "",
            "cluster": "roeterseiland",
            "lat": "52.362367",
            "lon": "4.911357",
            "lastModified": "2014-03-04T09:41:17"
        },
        {
            "url": "https://www.uva.nl/_service/locaties/binnenstad/handboogstraat-1-3.html",
            "id": "handboogstraat-1-3",
            "name": "Handboogstraat 1-3",
            "description": "Handboogstraat 1-3",
            "content": "<html><body/></html>",
            "address": "Handboogstraat 1-3",
            "postalCode": "1012 XM",
            "city": "Amsterdam",
            "phone": "",
            "cluster": "binnenstad",
            "lat": "52.3682353",
            "lon": "4.8900884",
            "lastModified": "2015-07-17T10:45:39"
        },
        {
            "url": "https://www.uva.nl/_service/locaties/binnenstad/handboogstraat-6.html",
            "id": "handboogstraat-6",
            "name": "Handboogstraat 6",
            "description": "Handboogstraat 2-6",
            "content": "<html><body/></html>",
            "address": "Handboogstraat 2-6",
            "postalCode": "1012 XM",
            "city": "Amsterdam",
            "phone": "+31 (0)20 525 2808",
            "cluster": "binnenstad",
            "lat": "52.36839",
            "lon": "4.889856",
            "lastModified": "2015-07-21T13:57:50"
        },
        {
            "url": "https://www.uva.nl/_service/locaties/binnenstad/handboogstraat-5-9.html",
            "id": "handboogstraat-5-9",
            "name": "Handboogstraat 5-9",
            "description": "Handboogstraat 5-9",
            "content": "<p>Ingang van dit gebouw via het Maagdenhuis, Spui 21.</p> \n<h4>Bereikbaarheid OV: </h4> \n<p><em>Vanaf Centraal Station:</em></p> \n<p>Tram 1: halte Spui</p> \n<p>Tram 2: halte Spui</p> \n<p>Tram 5: halte Spui</p>",
            "address": "Handboogstraat 5-9",
            "postalCode": "1012 XM",
            "city": "Amsterdam",
            "phone": "",
            "cluster": "binnenstad",
            "lat": "52.3682181",
            "lon": "4.8902941",
            "lastModified": "2015-07-17T10:48:40"
        },
        {
            "url": "https://www.uva.nl/_service/locaties/amc/iwo-boekendepot.html",
            "id": "iwo-boekendepot",
            "name": "IWO - Boekendepot",
            "description": "IWO - Tentamenzalen & Boekendepot",
            "content": "<p>Linksaf het voetpad volgen richting Hogeschool van Amsterdam. Brug over, links aanhouden, rechtsaf over parkeerterreinen (P4) naar IWO-Gebouw.</p>\n\n<h3>&nbsp;</h3>\n\n<h3>Tentamenzalen</h3>\n\n<p>Telefoonnummer: +31 (0)20 566 2232</p>\n\n<h3>Boekendepot</h3>\n\n<p>Telefoonnummer: +31 (0)20 525 2359<br />\nZie voor meer informatie <a href=\"http://uba.uva.nl/locaties/uba-boekendepot-iwo.html\" target=\"_blank\" title=\"UBA-boekendepot (IWO)\">UBA-boekendepot (IWO)</a></p>",
            "address": "Meibergdreef 29",
            "postalCode": "1105 AZ",
            "city": "Amsterdam",
            "phone": "",
            "cluster": "AMC",
            "lat": "52.293717",
            "lon": "4.958736",
            "lastModified": "2016-11-23T10:51:18",
            "thumbnail": "https://static.uva.nl/binaries/thumbnail/content/gallery/locaties/a/5549-gebouwen-tentamenzalen-amc-owi-fotograaf-dirk-gillissen-gebruik-vrij-img_0109-w1280_cr.jpg"
        },
        {
            "url": "https://www.uva.nl/_service/locaties/uva-overig/james-wattstraat-78.html",
            "id": "james-wattstraat-78",
            "name": "James Wattstraat 78",
            "description": "James Wattstraat 78",
            "content": "<html><body>\n<p>Er zijn geen vaste openingstijden voor de collegezalen en het pand.</p>\n\n<p>Wanneer er geen colleges ingeroosterd zijn is het pand gesloten. <br/>\nZie voor collegetijden de roostersite van de UvA\nop <a target=\"_blank\" href=\"https://webmail2.hva.nl/owa/redir.aspx?C=fRGUz5QYYka84CTFPix0WS91o3pd7dEI1d9DYreNa8n2nMG7_WbYgx1vbw9ei6BGA57wjDpu7EI.&amp;URL=http%3a%2f%2fwww.rooster.uva.nl\">www.rooster.uva.nl</a>.\n</p>\n</body></html>",
            "address": "James Wattstraat 78",
            "postalCode": "1097 DL",
            "city": "Amsterdam",
            "phone": "+31(0)20 525 5742",
            "cluster": "roeterseiland",
            "lat": "52.349961",
            "lon": "4.921339",
            "lastModified": "2015-11-12T12:35:14"
        },
        {
            "url": "https://www.uva.nl/_service/locaties/binnenstad/johannes-vermeerplein-1.html",
            "id": "johannes-vermeerplein-1",
            "name": "Johannes Vermeerplein 1",
            "description": "Johannes Vermeerplein 1",
            "content": "<p>In dit pand is gevestigd: Conservering en Restauratie van cultureel erfgoed.</p>",
            "address": "Johannes Vermeerplein 1",
            "postalCode": "1071 DV",
            "city": "Amsterdam",
            "phone": "",
            "cluster": "binnenstad",
            "lat": "52.355812",
            "lon": "4.884184",
            "lastModified": "2015-06-02T13:08:18"
        },
        {
            "url": "https://www.uva.nl/_service/locaties/uva-overig/kohnstammhuis.html",
            "id": "kohnstammhuis",
            "name": "Kohnstammhuis",
            "description": "Kohnstammhuis",
            "content": "<html><body></body></html>",
            "address": "Wibautstraat 2-4",
            "postalCode": "1091 GM",
            "city": "Amsterdam",
            "phone": "",
            "cluster": "externelocatie",
            "lat": "0.0",
            "lon": "0.0",
            "lastModified": "2015-11-12T12:34:57",
            "thumbnail": "https://static.uva.nl/binaries/thumbnail/content/gallery/locaties/k/kohnstammhuis.jpg"
        },
        {
            "url": "https://www.uva.nl/_service/locaties/binnenstad/korte-spinhuissteeg-3.html",
            "id": "korte-spinhuissteeg-3",
            "name": "Korte Spinhuissteeg 3",
            "description": "Korte Spinhuissteeg 3",
            "content": "<html><body></body></html>",
            "address": "Korte Spinhuissteeg 3",
            "postalCode": "1012 CX",
            "city": "Amsterdam",
            "phone": "+31 (0)20 525 3406",
            "cluster": "binnenstad",
            "lat": "52.37073",
            "lon": "4.89726",
            "lastModified": "2015-05-19T09:12:31"
        },
        {
            "url": "https://www.uva.nl/_service/locaties/uva-overig/leeuwenburg.html",
            "id": "leeuwenburg",
            "name": "Leeuwenburg",
            "description": "Leeuwenburg",
            "content": "<html><body></body></html>",
            "address": "Weesperzijde 190",
            "postalCode": "1097 DZ",
            "city": "Amsterdam",
            "phone": "+31 (0)20 595 1111",
            "cluster": "externelocatie",
            "lat": "52.34605",
            "lon": "4.916189",
            "lastModified": "2015-11-12T12:34:37",
            "thumbnail": "https://static.uva.nl/binaries/thumbnail/content/gallery/locaties/l/leeuwenburg.jpg"
        },
        {
            "url": "https://www.uva.nl/_service/locaties/binnenstad/maagdenhuis.html",
            "id": "maagdenhuis",
            "name": "Maagdenhuis",
            "description": "Maagdenhuis",
            "content": "<html><body><h4>Openingstijden: </h4>\n<p>Maandag t/m vrijdag: 8:00 - 18:00 uur</p>\n</body></html>",
            "address": "Spui 21",
            "postalCode": "1012 WX",
            "city": "Amsterdam",
            "phone": "+31 (0)20 525 2704",
            "cluster": "binnenstad",
            "lat": "52.368689",
            "lon": "4.89009",
            "lastModified": "2014-03-07T09:25:41",
            "thumbnail": "https://static.uva.nl/binaries/thumbnail/content/gallery/locaties/m/geschaald-3921-gebouwen-maagdenhuis-spui-fotograaf-dirk-gillissen-gebruik-vrij-img_0005-hippo.jpg"
        },
        {
            "url": "https://www.uva.nl/_service/locaties/amc/meibergdreef-15.html",
            "id": "meibergdreef-15",
            "name": "Meibergdreef 15",
            "description": "Meibergdreef 15",
            "content": "<html><body></body></html>",
            "address": "Meibergdreef 15",
            "postalCode": "1105 AZ",
            "city": "Amsterdam",
            "phone": "",
            "cluster": "AMC",
            "lat": "52.29418",
            "lon": "4.959966",
            "lastModified": "2015-07-21T13:53:46"
        },
        {
            "url": "https://www.uva.nl/_service/locaties/binnenstad/nieuwe-doelenstraat-15.html",
            "id": "nieuwe-doelenstraat-15",
            "name": "Nieuwe Doelenstraat 15",
            "description": "Nieuwe Doelenstraat 15",
            "content": "<html><body></body></html>",
            "address": "Nieuwe Doelenstraat 15",
            "postalCode": "1012 CP",
            "city": "Amsterdam",
            "phone": "+31 (0)20 525 4500",
            "cluster": "binnenstad",
            "lat": "52.3679576",
            "lon": "4.8946285",
            "lastModified": "2015-07-17T11:44:24"
        },
        {
            "url": "https://www.uva.nl/_service/locaties/binnenstad/oost-indisch-huis.html",
            "id": "oost-indisch-huis",
            "name": "Oost Indisch Huis",
            "description": "Oost-Indisch Huis",
            "content": "<html><body><h4>Openingstijden: </h4>\n<p>Maandag t/m donderdag: 9:00 - 19:30 uur</p>\n\n<p>Vrijdag: 9:00 - 17:00 uur</p>\n</body></html>",
            "address": "Kloveniersburgwal 48",
            "postalCode": "1012 CX",
            "city": "Amsterdam",
            "phone": "+31 (0)20 525 2258",
            "cluster": "binnenstad",
            "lat": "52.3711083",
            "lon": "4.8979855",
            "lastModified": "2016-05-25T11:59:58",
            "thumbnail": "https://static.uva.nl/binaries/thumbnail/content/gallery/locaties/o/oost-indisch-huis.png"
        },
        {
            "url": "https://www.uva.nl/_service/locaties/binnenstad/oude-turfmarkt-141-143.html",
            "id": "oude-turfmarkt-141-143",
            "name": "Oude Turfmarkt 141-143",
            "description": "Oude Turfmarkt 141-143",
            "content": "<html><body><h4>Openingstijden: </h4>\n<p>Maandag t/m vrijdag: 8:00 - 18:00 uur</p>\n</body></html>",
            "address": "Oude Turfmarkt 141-143",
            "postalCode": "1012 GC",
            "city": "Amsterdam",
            "phone": "+31 (0)20 525 3171",
            "cluster": "binnenstad",
            "lat": "52.3680061",
            "lon": "4.8936516",
            "lastModified": "2015-07-17T11:46:24",
            "thumbnail": "https://static.uva.nl/binaries/thumbnail/content/gallery/locaties/o/otm_141-147-0240_el.jpg"
        },
        {
            "url": "https://www.uva.nl/_service/locaties/binnenstad/oude-turfmarkt-145-147.html",
            "id": "oude-turfmarkt-145-147",
            "name": "Oude Turfmarkt 145-147",
            "description": "Oude Turfmarkt 145-147",
            "content": "<html><body><h4>Openingstijden: </h4>\n<p>Maandag t/m vrijdag: 8:00 - 18:00 uur</p>\n</body></html>",
            "address": "Oude Turfmarkt 145-147",
            "postalCode": "1012 GC",
            "city": "Amsterdam",
            "phone": "+31 (0)20 525 3171",
            "cluster": "binnenstad",
            "lat": "52.3678937",
            "lon": "4.8937786",
            "lastModified": "2015-07-17T11:52:50",
            "thumbnail": "https://static.uva.nl/binaries/thumbnail/content/gallery/locaties/o/otm_141-147-0240_el.jpg"
        },
        {
            "url": "https://www.uva.nl/_service/locaties/binnenstad/oude-turfmarkt-149.html",
            "id": "oude-turfmarkt-149",
            "name": "Oude Turfmarkt 149",
            "description": "Oude Turfmarkt 149",
            "content": "<html><body><h4>Openingstijden: </h4>\n<p>Maandag t/m vrijdag: 8:00 - 18:00 uur</p>\n</body></html>",
            "address": "Oude Turfmarkt 149",
            "postalCode": "1012 GC",
            "city": "Amsterdam",
            "phone": "+31 (0)20 525 2766",
            "cluster": "binnenstad",
            "lat": "52.3677998",
            "lon": "4.8938847",
            "lastModified": "2015-07-17T11:48:21"
        },
        {
            "url": "https://www.uva.nl/_service/locaties/binnenstad/oudemanhuispoort.html",
            "id": "oudemanhuispoort",
            "name": "Oudemanhuispoort",
            "description": "Oudemanhuispoort",
            "content": "<html><body><h4>Openingstijden: </h4>\n<p>Maandag t/m donderdag: 8:00 - 22:00 uur</p>\n\n<p>Vrijdag: 8:00 - 19:00 uur</p>\n\n<p>\n<a href=\"http://diensten.uba.uva.nl/com/maps/?highlight=bieb_jb\">Openingstijden\nbibliotheek </a></p>\n\n<p>\n<a href=\"http://diensten.uba.uva.nl/com/maps/?highlight=studie_omhp\">Openingstijden\nstudiecentrum</a></p>\n\n<p>Postadres:</p>\n\n<p>Postbus 1030</p>\n\n<p>1000 BA Amsterdam</p>\n\n<p> </p>\n</body></html>",
            "address": "Oudemanhuispoort 4-6",
            "postalCode": "1012 CN",
            "city": "Amsterdam",
            "phone": "+31 (0)20 525 3361",
            "cluster": "binnenstad",
            "lat": "52.3694069",
            "lon": "4.8959581",
            "lastModified": "2015-07-17T11:49:45",
            "thumbnail": "https://static.uva.nl/binaries/thumbnail/content/gallery/locaties/o/57579-gebouwen-oude-manhuis-poort-fdr-gillissen-img_5618--w1280_cr.jpg"
        },
        {
            "url": "https://www.uva.nl/_service/locaties/binnenstad/pc-hoofthuis.html",
            "id": "pc-hoofthuis",
            "name": "PC Hoofthuis",
            "description": "P.C. Hoofthuis",
            "content": "<html><body><h4>Openingstijden: </h4>\n<p>Maandag t/m donderdag: 8:00 - 22:00 uur</p>\n\n<p>Vrijdag: 8:00 - 19:00 uur</p>\n\n<p>\n<a href=\"http://diensten.uba.uva.nl/com/maps/?highlight=bieb_pch\">Openingstijden\nbibliotheek</a></p>\n\n<p>\n<a href=\"http://diensten.uba.uva.nl/com/maps/?highlight=studie_pch\">Openingstijden\nstudiecentrum</a></p>\n\n<p> </p>\n</body></html>",
            "address": "Spuistraat 134",
            "postalCode": "1012 VB",
            "city": "Amsterdam",
            "phone": "+31 (0)20 525 4410",
            "cluster": "binnenstad",
            "lat": "52.374137",
            "lon": "4.889991",
            "lastModified": "2014-03-07T09:28:56",
            "thumbnail": "https://static.uva.nl/binaries/thumbnail/content/gallery/locaties/p/uva-gebouwen-pc-hoofthuis.png"
        },
        {
            "url": "https://www.uva.nl/_service/locaties/binnenstad/prins-hendrikkade-189b.html",
            "id": "prins-hendrikkade-189b",
            "name": "Prins Hendrikkade 189b",
            "description": "Prins Hendrikkade 189b",
            "content": "<html><body>\n<p>Openingstijden:</p>\n\n<p>Maandag t/m vrijdag: 8:00 - 18:00 uur</p>\n\n<p> </p>\n\n<p> </p>\n</body></html>",
            "address": "Prins Hendrikkade 189b",
            "postalCode": "1011 TD",
            "city": "Amsterdam",
            "phone": "",
            "cluster": "binnenstad",
            "lat": "52.3710627",
            "lon": "4.9110546",
            "lastModified": "2015-07-17T11:54:31"
        },
        {
            "url": "https://www.uva.nl/_service/locaties/roeterseiland/rec-a.html",
            "id": "rec-a",
            "name": "REC A",
            "description": "Roeterseilandcampus - gebouw A",
            "content": "<p>Deze locatie is nog in verbouwing. Openingstijden worden later toegevoegd aan deze pagina.</p>\n\n<p>Postadres: postbus 1030, 1000 BA Amsterdam</p>",
            "address": "Nieuwe Achtergracht 166",
            "postalCode": "1018 WV",
            "city": "Amsterdam",
            "phone": "",
            "cluster": "roeterseiland",
            "lat": "52.363239",
            "lon": "4.912316",
            "lastModified": "2017-04-06T16:59:52"
        },
        {
            "url": "https://www.uva.nl/_service/locaties/roeterseiland/rec-b-c-d-ingang-b-c.html",
            "id": "rec-b-c-d-ingang-b-c",
            "name": "REC B/C/D (ingang B/C)",
            "description": "Roeterseilandcampus - gebouw B/C/D (ingang B/C)",
            "content": "<h4>Openingstijden:</h4>\n\n<p>Reguliere openingstijden: ma t/m vr: 8.00 tot 22.00 uur.&nbsp;<br />\nZaterdag en zondag gesloten</p>\n\n<h4>Ingang mindervaliden</h4>\n\n<p>De ingang voor mindervaliden van gebouw B/C bevindt zich aan de de Valckenierstraat.</p>\n\n<h4>Route in het gebouw</h4>\n\n<p>Vind de route in <a href=\"http://uva.mapiq.net/rec-bcd\">gebouw B/C/D</a></p>\n\n<h4>Route naar het gebouw</h4>",
            "address": "Nieuwe Achtergracht 166",
            "postalCode": "1018 WV",
            "city": "Amsterdam",
            "phone": "Receptie B:  525 5340   Receptie C: 525 5470",
            "cluster": "roeterseiland",
            "lat": "52.3629342",
            "lon": "4.9124045",
            "lastModified": "2017-06-20T15:46:19",
            "thumbnail": "https://static.uva.nl/binaries/thumbnail/content/gallery/locaties/r/roeterseiland---b-c/gebouw-rec-bc-trap-juni-2017.jpg"
        },
        {
            "url": "https://www.uva.nl/_service/locaties/roeterseiland/rec-b-c-d-ingang-d.html",
            "id": "rec-b-c-d-ingang-d",
            "name": "REC B/C/D (ingang D)",
            "description": "Roeterseilandcampus - gebouw B/C/D (ingang D)",
            "content": "<h4>Openingstijden:</h4>\n\n<p>De kantooretages van bouwdelen B/C/D zijn van 8.00 -&nbsp;18.00 uur vrij toegankelijk voor medewerkers en studenten. Medewerkers (FMG) kunnen de verbindingsdeuren tussen de bouwdelen B/C/D met de medewerkerspas openen. Tussen 18.00 -&nbsp;22.00 uur hebben medewerkers alleen toegang tot de eigen kantooretages.</p>\n\n<p>Zaterdag en zondag gesloten.</p>\n\n<h4>Route in het gebouw</h4>\n\n<p>Vind de route in <a href=\"http://uva.mapiq.net/rec-bcd\" target=\"_blank\">gebouw B/C/D</a></p>\n\n<h4>Route naar het gebouw</h4>",
            "address": "Nieuwe Achtergracht 127",
            "postalCode": "1018 WS",
            "city": "Amsterdam",
            "phone": "Receptie B: 525 5340 Receptie C: 525 5470",
            "cluster": "roeterseiland",
            "lat": "52.363474",
            "lon": "4.911835",
            "lastModified": "2017-04-05T09:30:19"
        },
        {
            "url": "https://www.uva.nl/_service/locaties/roeterseiland/rec-e.html",
            "id": "rec-e",
            "name": "REC E",
            "description": "Roeterseilandcampus - gebouw E",
            "content": "<h4>Openingstijden:</h4>\n\n<p>Maandag t/m donderdag: 8.00 - 22.00 uur<br />\nVrijdag: 8.00 - 18.00 uur</p>\n\n<h4>Route in het gebouw</h4>\n\n<p>Vind de route in <a href=\"http://uva.mapiq.net/rec-e\" target=\"_blank\">gebouw E</a></p>\n\n<h4>Route naar het gebouw</h4>",
            "address": "Roetersstraat 11",
            "postalCode": "1018 WB",
            "city": "Amsterdam",
            "phone": "+31 (0)20 525 5387",
            "cluster": "roeterseiland",
            "lat": "52.363958",
            "lon": "4.911181",
            "lastModified": "2017-04-05T09:27:23",
            "thumbnail": "https://static.uva.nl/binaries/thumbnail/content/gallery/locaties/r/roeterseiland---e/gebouweroeterseiland-hboogertfeb2007.jpg"
        },
        {
            "url": "https://www.uva.nl/_service/locaties/roeterseiland/rec-g.html",
            "id": "rec-g",
            "name": "REC G",
            "description": "Roeterseilandcampus - gebouw G",
            "content": "<h4>Openingstijden:</h4>\n\n<p>Maandag t/m vrijdag: 8.00 - 22.00 uur</p>\n\n<h4>Route in het gebouw</h4>\n\n<p>Vind de route in <a href=\"http://uva.mapiq.net/rec-g\" target=\"_blank\">gebouw G</a></p>\n\n<h4>Route naar het gebouw</h4>",
            "address": "Nieuwe Achtergracht 129-B",
            "postalCode": "1018 WT",
            "city": "Amsterdam",
            "phone": "",
            "cluster": "roeterseiland",
            "lat": "52.364383",
            "lon": "4.912138",
            "lastModified": "2017-04-05T09:29:48"
        },
        {
            "url": "https://www.uva.nl/_service/locaties/roeterseiland/rec-h.html",
            "id": "rec-h",
            "name": "REC H",
            "description": "Roeterseilandcampus - gebouw H (Library Learning Centre)",
            "content": "<h4>Openingstijden:</h4>\n\n<p>Maandag t/m donderdag: 08.30 - 22.00 uur<br />\nVrijdag: 08.30 - 20.00 uur<br />\nZaterdag en&nbsp;zondag:&nbsp;09.00 - 18.00 uur</p>\n\n<h4>Route in het gebouw</h4>\n\n<p>Vind de route in het <a href=\"http://uva.mapiq.net/rec-h\" target=\"_blank\">gebouw H</a></p>\n\n<h4>Route naar het gebouw</h4>",
            "address": "Roetersstraat 11",
            "postalCode": "1018 WB",
            "city": "Amsterdam",
            "phone": "",
            "cluster": "roeterseiland",
            "lat": "52.3637566",
            "lon": "4.9112799",
            "lastModified": "2017-04-05T09:32:21"
        },
        {
            "url": "https://www.uva.nl/_service/locaties/roeterseiland/rec-i-crea.html",
            "id": "rec-i-crea",
            "name": "REC I - CREA",
            "description": "Roeterseilandcampus - gebouw I (CREA)",
            "content": "<html><body></body></html>",
            "address": "Nieuwe Achtergracht 168-178",
            "postalCode": "1018 WV",
            "city": "Amsterdam",
            "phone": "",
            "cluster": "roeterseiland",
            "lat": "52.3632225",
            "lon": "4.9125775",
            "lastModified": "2015-10-16T14:04:08",
            "thumbnail": "https://static.uva.nl/binaries/thumbnail/content/gallery/locaties/c/crea-roeterseiland-uva-locaties-fotogillissen-img_4591.jpg"
        },
        {
            "url": "https://www.uva.nl/_service/locaties/roeterseiland/rec-jk.html",
            "id": "rec-jk",
            "name": "REC JK",
            "description": "Roeterseilandcampus - gebouw J/K",
            "content": "<h4>Openingstijden:</h4>\n\n<p>Maandag t/m donderdag:&nbsp;8.00 - 22.00 uur<br />\nVrijdag: 8.00 - 18.00 uur&nbsp;</p>",
            "address": "Valckenierstraat 65-67",
            "postalCode": "1018 XE",
            "city": "Amsterdam",
            "phone": "+31 (0)20 525 5663",
            "cluster": "roeterseiland",
            "lat": "52.3630135",
            "lon": "4.9142388",
            "lastModified": "2016-10-25T10:49:45"
        },
        {
            "url": "https://www.uva.nl/_service/locaties/roeterseiland/rec-l.html",
            "id": "rec-l",
            "name": "REC L",
            "description": "Roeterseilandcampus - gebouw L",
            "content": "<h4>Openingstijden:</h4>\n\n<p>Maandag t/m vrijdag: 8.00 - 17.30 uur</p>",
            "address": "Nieuwe Achtergracht 129",
            "postalCode": "1018 WS",
            "city": "Amsterdam",
            "phone": "+31 (0)20 525 1201",
            "cluster": "roeterseiland",
            "lat": "52.363598",
            "lon": "4.91239",
            "lastModified": "2016-10-25T10:50:46"
        },
        {
            "url": "https://www.uva.nl/_service/locaties/roeterseiland/rec-m.html",
            "id": "rec-m",
            "name": "REC M",
            "description": "Roeterseilandcampus - gebouw M",
            "content": "<h4>Openingstijden:</h4>\n\n<p>Maandag t/m donderdag: 8.00 - 22.00 uur<br />\nVrijdag: 8.00 - 18.00 uur</p>\n\n<h4>Route in het gebouw</h4>\n\n<p>Vind de route in <a href=\"http://uva.mapiq.net/rec-m\" target=\"_blank\">gebouw M</a></p>\n\n<h4>Route naar het gebouw</h4>",
            "address": "Plantage Muidergracht 12",
            "postalCode": "1018 TV",
            "city": "Amsterdam",
            "phone": "+31 (0)20 525 5250",
            "cluster": "roeterseiland",
            "lat": "52.3651601",
            "lon": "4.9116465",
            "lastModified": "2017-04-05T09:33:23",
            "thumbnail": "https://static.uva.nl/binaries/thumbnail/content/gallery/locaties/r/roeterseiland---m/125178-gebouwen-amsterdambusinessschool-fotoinekeoostveen-w1280_cr.jpg"
        },
        {
            "url": "https://www.uva.nl/_service/locaties/roeterseiland/rec-p-euclides.html",
            "id": "rec-p-euclides",
            "name": "REC P -Euclides",
            "description": "Roeterseilandcampus - gebouw P",
            "content": "<html><body/></html>",
            "address": "Plantage Muidergracht 24",
            "postalCode": "1018 TV",
            "city": "Amsterdam",
            "phone": "+31 (0)20 525 5200",
            "cluster": "roeterseiland",
            "lat": "52.3640323",
            "lon": "4.9150354",
            "lastModified": "2015-08-04T12:09:07"
        },
        {
            "url": "https://www.uva.nl/_service/locaties/sciencepark/sciencepark-107.html",
            "id": "sciencepark-107",
            "name": "Science Park 107",
            "description": "Science Park 107",
            "content": "<html><body/></html>",
            "address": "Science Park 107",
            "postalCode": "1098 XG",
            "city": "Amsterdam",
            "phone": "",
            "cluster": "sciencepark",
            "lat": "52.3555188",
            "lon": "4.9506319",
            "lastModified": "2015-08-06T13:56:21"
        },
        {
            "url": "https://www.uva.nl/_service/locaties/sciencepark/ace-venture-lab.html",
            "id": "ace-venture-lab",
            "name": "ACE Venture Lab",
            "description": "Science Park 402",
            "content": "<html><body></body></html>",
            "address": "Science Park 402",
            "postalCode": "1043 AJ",
            "city": "Amsterdam",
            "phone": "",
            "cluster": "sciencepark",
            "lat": "0.0",
            "lon": "0.0",
            "lastModified": "2015-08-06T13:54:07"
        },
        {
            "url": "https://www.uva.nl/_service/locaties/sciencepark/science-park-904.html",
            "id": "science-park-904",
            "name": "Science Park 904",
            "description": "Science Park 904",
            "content": "<h4>Postadres: </h4> \n<p>Postbus 94216 \n<br /> 1090 GE Amsterdam</p> \n<p> \n<a href=\"http://diensten.uba.uva.nl/com/maps/?highlight=bieb_bibliotheek-b-tawetenschappen\">Openingstijden\nbibliotheek </a></p> \n<p> \n<a href=\"http://diensten.uba.uva.nl/com/maps/?highlight=studie_science-park\">Openingstijden\nstudiecentrum</a></p> \n<p> </p>",
            "address": "Science Park 904",
            "postalCode": "1098 XH",
            "city": "Amsterdam",
            "phone": "+31 (0)20 525 8626",
            "cluster": "sciencepark",
            "lat": "52.3544534",
            "lon": "4.9553595",
            "lastModified": "2016-09-26T09:16:30",
            "thumbnail": "https://static.uva.nl/binaries/thumbnail/content/gallery/locaties/s/science-park-904_hanne_nijhuis.jpg"
        },
        {
            "url": "https://www.uva.nl/_service/locaties/sciencepark/science-park-e.html",
            "id": "science-park-e",
            "name": "Science Park E",
            "description": "Science Park E",
            "content": "<html><body/></html>",
            "address": "Science Park 700",
            "postalCode": "1098 XH",
            "city": "Amsterdam",
            "phone": "+31 (0)20 525 7733",
            "cluster": "sciencepark",
            "lat": "52.3562973",
            "lon": "4.9590156",
            "lastModified": "2015-07-17T13:41:49"
        },
        {
            "url": "https://www.uva.nl/_service/locaties/sciencepark/science-park-f.html",
            "id": "science-park-f",
            "name": "Science Park F",
            "description": "Science Park F",
            "content": "",
            "address": "Science Park 500",
            "postalCode": "1098 XH",
            "city": "Amsterdam",
            "phone": "+31 (0)20 525 7733",
            "cluster": "sciencepark",
            "lat": "52.3555151",
            "lon": "4.9583989",
            "lastModified": "2015-07-17T13:42:41"
        },
        {
            "url": "https://www.uva.nl/_service/locaties/sciencepark/science-park-g.html",
            "id": "science-park-g",
            "name": "Science Park G",
            "description": "Science Park G",
            "content": "",
            "address": "Science Park 508",
            "postalCode": "1098 XH",
            "city": "Amsterdam",
            "phone": "",
            "cluster": "sciencepark",
            "lat": "52.3561645",
            "lon": "4.9590238",
            "lastModified": "2015-07-17T13:39:20"
        },
        {
            "url": "https://www.uva.nl/_service/locaties/sciencepark/science-park-h.html",
            "id": "science-park-h",
            "name": "Science Park H",
            "description": "Science Park H",
            "content": "<html><body></body></html>",
            "address": "Science Park 912",
            "postalCode": "1098 XH",
            "city": "Amsterdam",
            "phone": "",
            "cluster": "sciencepark",
            "lat": "52.354196",
            "lon": "4.957059",
            "lastModified": "2016-08-08T12:11:40"
        },
        {
            "url": "https://www.uva.nl/_service/locaties/binnenstad/spinhuis.html",
            "id": "spinhuis",
            "name": "Spinhuis",
            "description": "Spinhuis",
            "content": "<html><body><h4>Openingstijden </h4>\n<p>Maandag t/m vrijdag: 8:00 - 18.00 uur</p>\n</body></html>",
            "address": "Oudezijds Achterburgwal 185",
            "postalCode": "1012 DK",
            "city": "Amsterdam",
            "phone": "+31 (0)20 525 2614",
            "cluster": "binnenstad",
            "lat": "52.37069",
            "lon": "4.8963763",
            "lastModified": "2015-07-17T12:31:36",
            "thumbnail": "https://static.uva.nl/binaries/thumbnail/content/gallery/locaties/s/95930-gebouw-spinhuis-fotomarcelvangaalen-dsc_3309-w1280_cr.jpg"
        },
        {
            "url": "https://www.uva.nl/_service/locaties/sciencepark/sportcentrum-universum.html",
            "id": "sportcentrum-universum",
            "name": "Sportcentrum Universum",
            "description": "Sportcentrum Universum (USC)",
            "content": "",
            "address": "Science Park 306",
            "postalCode": "1098 XH",
            "city": "Amsterdam",
            "phone": "+31 (0)20 525 8955",
            "cluster": "sciencepark",
            "lat": "52.3551074",
            "lon": "4.955311",
            "lastModified": "2015-07-17T13:29:04",
            "thumbnail": "https://static.uva.nl/binaries/thumbnail/content/gallery/locaties/u/128740-usc-gebouw-sciencepark-fotojanwillemsteenmeijer_1-w1280_cr.jpg"
        },
        {
            "url": "https://www.uva.nl/_service/locaties/binnenstad/spui-25.html",
            "id": "spui-25",
            "name": "Spui 25",
            "description": "Spui 25",
            "content": "",
            "address": "Spui 25-27",
            "postalCode": "1012 XM",
            "city": "Amsterdam",
            "phone": "+31 (0)20 525 8142",
            "cluster": "binnenstad",
            "lat": "52.368721",
            "lon": "4.889667",
            "lastModified": "2017-05-16T11:24:52",
            "thumbnail": "https://static.uva.nl/binaries/thumbnail/content/gallery/locaties/s/spui25-front-view.png"
        },
        {
            "url": "https://www.uva.nl/_service/locaties/binnenstad/studentenartsen.html",
            "id": "studentenartsen",
            "name": "Studentenartsen",
            "description": "Studentenartsen",
            "content": "<html><body><h4>Openingstijden: </h4>\n<p>Maandag t/m vrijdag: 8:00-17:00 uur</p>\n<h4>Spoedgevallen tijdens kantooruren tel: 020-5252889 </h4><h4>Spoedgevallen\nbuiten kantooruren en in het weekend tel: 088-0030600 </h4></body></html>",
            "address": "Oude Turfmarkt 151",
            "postalCode": "1012 GC",
            "city": "Amsterdam",
            "phone": "+31 (0)20 525 2878/4772",
            "cluster": "binnenstad",
            "lat": "52.3677572",
            "lon": "4.8939328",
            "lastModified": "2015-07-17T12:30:13",
            "thumbnail": "https://static.uva.nl/binaries/thumbnail/content/gallery/locaties/s/gebouwen-oudeturfmarkt-studentenartsen-googlestreetview.jpg"
        },
        {
            "url": "https://www.uva.nl/_service/locaties/binnenstad/universiteitsbibliotheek.html",
            "id": "universiteitsbibliotheek",
            "name": "Universiteitsbibliotheek",
            "description": "Universiteitsbibliotheek",
            "content": "<h4>Openingstijden: </h4> \n<p> \n<a href=\"http://diensten.uba.uva.nl/com/maps/?highlight=studie_studiecentrum-ub\">Openingstijden\nstudiecentrum en Selfservice</a></p> \n<p><em>Let op!  Na 18.00 uur, op zaterdag en op zondag is de UB alleen\ntoegankelijk voor studenten en medewerkers van UvA en HvA.</em></p>",
            "address": "Singel 425",
            "postalCode": "1012 WP",
            "city": "Amsterdam",
            "phone": "+31 (0)20 525 2301",
            "cluster": "binnenstad",
            "lat": "52.3677036",
            "lon": "4.8897713",
            "lastModified": "2015-10-16T14:25:12",
            "thumbnail": "https://static.uva.nl/binaries/thumbnail/content/gallery/locaties/u/universiteitsbibliotheek-singel-fotomoniquekooijmans-lowres.jpg"
        },
        {
            "url": "https://www.uva.nl/_service/locaties/binnenstad/universiteitstheater.html",
            "id": "universiteitstheater",
            "name": "Universiteitstheater",
            "description": "Universiteitstheater",
            "content": "<h4>Openingstijden: </h4> \n<p>Maandag t/m vrijdag: 8:00 - 18:00 uur</p>",
            "address": "Nieuwe Doelenstraat 16-18",
            "postalCode": "1012 CP",
            "city": "Amsterdam",
            "phone": "+31 (0)20 525 2997",
            "cluster": "binnenstad",
            "lat": "52.3679054",
            "lon": "4.8950255",
            "lastModified": "2015-07-17T13:48:13",
            "thumbnail": "https://static.uva.nl/binaries/thumbnail/content/gallery/locaties/u/universiteitstheater_nieuwe-doelenstraat16_0080.jpg"
        },
        {
            "url": "https://www.uva.nl/_service/locaties/binnenstad/vendelstraat-7.html",
            "id": "vendelstraat-7",
            "name": "Vendelstraat 7",
            "description": "Vendelstraat 7",
            "content": "",
            "address": "Vendelstraat 7",
            "postalCode": "1012 XX",
            "city": "Amsterdam",
            "phone": "",
            "cluster": "binnenstad",
            "lat": "52.3688249",
            "lon": "4.8956907",
            "lastModified": "2015-07-17T13:51:26"
        },
        {
            "url": "https://www.uva.nl/_service/locaties/binnenstad/vendelstraat-8.html",
            "id": "vendelstraat-8",
            "name": "Vendelstraat 8",
            "description": "Vendelstraat 8",
            "content": "",
            "address": "Vendelstraat 8",
            "postalCode": "1012 XX",
            "city": "Amsterdam",
            "phone": "",
            "cluster": "binnenstad",
            "lat": "52.3687026",
            "lon": "4.8955973",
            "lastModified": "2016-07-22T12:52:32",
            "thumbnail": "https://static.uva.nl/binaries/thumbnail/content/gallery/locaties/v/venderstraat8_0197-2.jpg"
        }
    ]
}